{
    "props": [
        {
            "bathrooms": 3,
            "bedrooms": 3,
            "listingStatus": "FOR_SALE",
            "zpid": "50004573",
            "longitude": -78.894532,
            "latitude": 35.917605,
            "address": "1408 Vanguard Pl, Durham, NC 27713",
            "livingArea": null,
            "propertyType": "SINGLE_FAMILY",
            "country": "USA",
            "currency": "USD",
            "listingDateTime": null,
            "price": 249990
        },
        {
            "bathrooms": 2,
            "bedrooms": 3,
            "listingStatus": "FOR_SALE",
            "zpid": "50004599",
            "longitude": -78.895076,
            "latitude": 35.918543,
            "address": "2 Meadhall Ct, Durham, NC 27713",
            "livingArea": 1233,
            "propertyType": "SINGLE_FAMILY",
            "country": "USA",
            "currency": "USD",
            "listingDateTime": 1619468396000,
            "price": 245000
        },
        {
            "bathrooms": 3,
            "bedrooms": 4,
            "listingStatus": "FOR_SALE",
            "zpid": "49992706",
            "longitude": -78.957105,
            "latitude": 35.930311,
            "address": "3906 Sunningdale Way, Durham, NC 27707",
            "livingArea": 2066,
            "propertyType": "SINGLE_FAMILY",
            "country": "USA",
            "currency": "USD",
            "listingDateTime": 1619475892000,
            "price": 399900
        },
        {
            "bathrooms": 2,
            "bedrooms": 3,
            "listingStatus": "FOR_SALE",
            "zpid": "50008895",
            "longitude": -78.831951,
            "latitude": 35.993476,
            "address": "9 Waystone Pl, Durham, NC 27703",
            "livingArea": 1121,
            "propertyType": "SINGLE_FAMILY",
            "country": "USA",
            "currency": "USD",
            "listingDateTime": 1619489696000,
            "price": 225000
        },
        {
            "bathrooms": 3,
            "bedrooms": 3,
            "listingStatus": "FOR_SALE",
            "zpid": "70919536",
            "longitude": -78.845313,
            "latitude": 35.951586,
            "address": "12 Artis Ln, Durham, NC 27703",
            "livingArea": 1388,
            "propertyType": "SINGLE_FAMILY",
            "country": "USA",
            "currency": "USD",
            "listingDateTime": 1618896591000,
            "price": 275000
        },
        {
            "bathrooms": 2,
            "bedrooms": 4,
            "listingStatus": "FOR_SALE",
            "zpid": "80205739",
            "longitude": -78.919306,
            "latitude": 35.904971,
            "address": "6526 Barbee Rd, Durham, NC 27713",
            "livingArea": 2082,
            "propertyType": "SINGLE_FAMILY",
            "country": "USA",
            "currency": "USD",
            "listingDateTime": 1618862390000,
            "price": 359000
        },
        {
            "bathrooms": 4,
            "bedrooms": 4,
            "listingStatus": "FOR_SALE",
            "zpid": "98194629",
            "longitude": -78.827858,
            "latitude": 35.958234,
            "address": "123 Windrush Ln, Durham, NC 27703",
            "livingArea": 3232,
            "propertyType": "SINGLE_FAMILY",
            "country": "USA",
            "currency": "USD",
            "listingDateTime": 1619312397000,
            "price": 395000
        },
        {
            "bathrooms": 2,
            "bedrooms": 3,
            "listingStatus": "FOR_SALE",
            "zpid": "50000377",
            "longitude": -78.921567,
            "latitude": 35.925391,
            "address": "6 Dandywood Ln, Durham, NC 27713",
            "livingArea": 1556,
            "propertyType": "SINGLE_FAMILY",
            "country": "USA",
            "currency": "USD",
            "listingDateTime": 1619240989000,
            "price": 285000
        },
        {
            "bathrooms": 3,
            "bedrooms": 3,
            "listingStatus": "FOR_SALE",
            "zpid": "157440298",
            "longitude": -78.875656,
            "latitude": 35.947612,
            "address": "102 White Burley Ct, Durham, NC 27703",
            "livingArea": 2360,
            "propertyType": "SINGLE_FAMILY",
            "country": "USA",
            "currency": "USD",
            "listingDateTime": 1619477396000,
            "price": 330000
        },
        {
            "bathrooms": 3,
            "bedrooms": 3,
            "listingStatus": "FOR_SALE",
            "zpid": "59712970",
            "longitude": -78.896402,
            "latitude": 35.92894,
            "address": "3634 Ranbir Dr, Durham, NC 27713",
            "livingArea": 1380,
            "propertyType": "SINGLE_FAMILY",
            "country": "USA",
            "currency": "USD",
            "listingDateTime": 1619580589000,
            "price": 239900
        },
        {
            "bathrooms": 2,
            "bedrooms": 3,
            "listingStatus": "FOR_SALE",
            "zpid": "50023203",
            "longitude": -78.939825,
            "latitude": 36.096647,
            "address": "116 Stedwick Pl, Durham, NC 27712",
            "livingArea": 1616,
            "propertyType": "SINGLE_FAMILY",
            "country": "USA",
            "currency": "USD",
            "listingDateTime": 1619132398000,
            "price": 250000
        },
        {
            "bathrooms": 2,
            "bedrooms": 3,
            "listingStatus": "FOR_SALE",
            "zpid": "49977060",
            "longitude": -78.911605,
            "latitude": 35.988533,
            "address": "1209 Vickers Ave, Durham, NC 27707",
            "livingArea": 2138,
            "propertyType": "SINGLE_FAMILY",
            "country": "USA",
            "currency": "USD",
            "listingDateTime": 1619163291000,
            "price": 600000
        },
        {
            "bathrooms": 3,
            "bedrooms": 3,
            "listingStatus": "FOR_SALE",
            "zpid": "2072290610",
            "longitude": -78.913331,
            "latitude": 35.893484,
            "address": "1304 Seaton Rd #T-5, Durham, NC 27713",
            "livingArea": 1656,
            "propertyType": "TOWNHOUSE",
            "country": "USA",
            "currency": "USD",
            "listingDateTime": 1619390095000,
            "price": 199900
        },
        {
            "bathrooms": 2,
            "bedrooms": 3,
            "listingStatus": "FOR_SALE",
            "zpid": "49974833",
            "longitude": -78.889983,
            "latitude": 35.987794,
            "address": "905 Dale St, Durham, NC 27701",
            "livingArea": 1015,
            "propertyType": "SINGLE_FAMILY",
            "country": "USA",
            "currency": "USD",
            "listingDateTime": 1619475892000,
            "price": 224900
        },
        {
            "bathrooms": 3,
            "bedrooms": 3,
            "listingStatus": "FOR_SALE",
            "zpid": "61726350",
            "longitude": -78.915446,
            "latitude": 35.916806,
            "address": "938 Cinnamon Dr, Durham, NC 27713",
            "livingArea": 1480,
            "propertyType": "TOWNHOUSE",
            "country": "USA",
            "currency": "USD",
            "listingDateTime": 1619464192000,
            "price": 235000
        },
        {
            "bathrooms": 3,
            "bedrooms": 3,
            "listingStatus": "FOR_SALE",
            "zpid": "50001479",
            "longitude": -78.933508,
            "latitude": 35.920343,
            "address": "107 Legacy Ln, Durham, NC 27713",
            "livingArea": 1687,
            "propertyType": "SINGLE_FAMILY",
            "country": "USA",
            "currency": "USD",
            "listingDateTime": 1618454393000,
            "price": 325000
        },
        {
            "bathrooms": 2,
            "bedrooms": 3,
            "listingStatus": "FOR_SALE",
            "zpid": "49971126",
            "longitude": -78.906103,
            "latitude": 36.029147,
            "address": "904 W Murray Ave, Durham, NC 27704",
            "livingArea": 1117,
            "propertyType": "SINGLE_FAMILY",
            "country": "USA",
            "currency": "USD",
            "listingDateTime": 1619577599000,
            "price": 269900
        },
        {
            "bathrooms": 3,
            "bedrooms": 2,
            "listingStatus": "FOR_SALE",
            "zpid": "2081543012",
            "longitude": -78.828964,
            "latitude": 35.931872,
            "address": "Eastway Plan, Lakeshore",
            "livingArea": 2051,
            "propertyType": "SINGLE_FAMILY",
            "country": "USA",
            "currency": "USD",
            "listingDateTime": 1619510460000,
            "price": 330900
        },
        {
            "bathrooms": 2,
            "bedrooms": 3,
            "listingStatus": "FOR_SALE",
            "zpid": "50022518",
            "longitude": -78.904012,
            "latitude": 36.088193,
            "address": "309 Roseland Ave, Durham, NC 27712",
            "livingArea": 1396,
            "propertyType": "SINGLE_FAMILY",
            "country": "USA",
            "currency": "USD",
            "listingDateTime": 1619420388000,
            "price": 269000
        },
        {
            "bathrooms": 3,
            "bedrooms": 4,
            "listingStatus": "FOR_SALE",
            "zpid": "50004968",
            "longitude": -78.909901,
            "latitude": 35.926388,
            "address": "27 Logger Ct, Durham, NC 27713",
            "livingArea": 2005,
            "propertyType": "SINGLE_FAMILY",
            "country": "USA",
            "currency": "USD",
            "listingDateTime": 1619132098000,
            "price": 305000
        },
        {
            "bathrooms": 1,
            "bedrooms": 3,
            "listingStatus": "FOR_SALE",
            "zpid": "49981463",
            "longitude": -78.866272,
            "latitude": 35.99748,
            "address": "1147 Delano St, Durham, NC 27703",
            "livingArea": 1050,
            "propertyType": "SINGLE_FAMILY",
            "country": "USA",
            "currency": "USD",
            "listingDateTime": 1619423088000,
            "price": 195000
        },
        {
            "bathrooms": 1,
            "bedrooms": 3,
            "listingStatus": "FOR_SALE",
            "zpid": "50007592",
            "longitude": -78.87445,
            "latitude": 36.039827,
            "address": "3029 Forrester St, Durham, NC 27704",
            "livingArea": 922,
            "propertyType": "SINGLE_FAMILY",
            "country": "USA",
            "currency": "USD",
            "listingDateTime": 1619563493000,
            "price": 69900
        },
        {
            "bathrooms": 2,
            "bedrooms": 3,
            "listingStatus": "FOR_SALE",
            "zpid": "49974353",
            "longitude": -78.882032,
            "latitude": 35.995555,
            "address": "1003 N Hyde Park Ave, Durham, NC 27701",
            "livingArea": 1599,
            "propertyType": "SINGLE_FAMILY",
            "country": "USA",
            "currency": "USD",
            "listingDateTime": 1607425657000,
            "price": 245000
        },
        {
            "bathrooms": 3,
            "bedrooms": 3,
            "listingStatus": "FOR_SALE",
            "zpid": "50010918",
            "longitude": -78.810851,
            "latitude": 35.972178,
            "address": "505 Guy Walker Way, Durham, NC 27703",
            "livingArea": 2525,
            "propertyType": "SINGLE_FAMILY",
            "country": "USA",
            "currency": "USD",
            "listingDateTime": 1619479790000,
            "price": 385000
        },
        {
            "bathrooms": 2,
            "bedrooms": 3,
            "listingStatus": "FOR_SALE",
            "zpid": "50017457",
            "longitude": -78.969107,
            "latitude": 36.05217,
            "address": "3704 Knollwood Dr, Durham, NC 27712",
            "livingArea": 1560,
            "propertyType": "SINGLE_FAMILY",
            "country": "USA",
            "currency": "USD",
            "listingDateTime": 1619459993000,
            "price": 279900
        },
        {
            "bathrooms": 3,
            "bedrooms": 3,
            "listingStatus": "FOR_SALE",
            "zpid": "50020339",
            "longitude": -78.894347,
            "latitude": 36.077401,
            "address": "4230 Lazyriver Dr, Durham, NC 27712",
            "livingArea": 1512,
            "propertyType": "SINGLE_FAMILY",
            "country": "USA",
            "currency": "USD",
            "listingDateTime": 1619566191000,
            "price": 256000
        },
        {
            "bathrooms": 3,
            "bedrooms": 2,
            "listingStatus": "FOR_SALE",
            "zpid": "87751527",
            "longitude": -78.825264,
            "latitude": 35.988487,
            "address": "12 Olivene Dr, Durham, NC 27703",
            "livingArea": 1460,
            "propertyType": "SINGLE_FAMILY",
            "country": "USA",
            "currency": "USD",
            "listingDateTime": 1619516394000,
            "price": 215000
        },
        {
            "bathrooms": 2,
            "bedrooms": 2,
            "listingStatus": "FOR_SALE",
            "zpid": "49994652",
            "longitude": -78.964675,
            "latitude": 35.961747,
            "address": "106 Gatehouse Ln, Durham, NC 27707",
            "livingArea": 1018,
            "propertyType": "TOWNHOUSE",
            "country": "USA",
            "currency": "USD",
            "listingDateTime": 1619256891000,
            "price": 168000
        },
        {
            "bathrooms": 2,
            "bedrooms": 2,
            "listingStatus": "FOR_SALE",
            "zpid": "50018643",
            "longitude": -78.947606,
            "latitude": 35.90988,
            "address": "600 Audubon Lake Dr APT 4C32, Durham, NC 27713",
            "livingArea": 1008,
            "propertyType": "CONDO",
            "country": "USA",
            "currency": "USD",
            "listingDateTime": 1619441993000,
            "price": 155000
        },
        {
            "bathrooms": 3,
            "bedrooms": 3,
            "listingStatus": "FOR_SALE",
            "zpid": "49974933",
            "longitude": -78.886681,
            "latitude": 35.986579,
            "address": "1302 E Main St, Durham, NC 27703",
            "livingArea": 2081,
            "propertyType": "SINGLE_FAMILY",
            "country": "USA",
            "currency": "USD",
            "listingDateTime": 1614899885000,
            "price": 389000
        },
        {
            "bathrooms": 2,
            "bedrooms": 3,
            "listingStatus": "FOR_SALE",
            "zpid": "49987346",
            "longitude": -78.882208,
            "latitude": 36.028936,
            "address": "2917 Firth Rd, Durham, NC 27704",
            "livingArea": 1070,
            "propertyType": "SINGLE_FAMILY",
            "country": "USA",
            "currency": "USD",
            "listingDateTime": 1619573990000,
            "price": 199900
        },
        {
            "bathrooms": 2,
            "bedrooms": 3,
            "listingStatus": "FOR_SALE",
            "zpid": "49972935",
            "longitude": -78.888391,
            "latitude": 36.012771,
            "address": "231 Knox Cir, Durham, NC 27701",
            "livingArea": 1784,
            "propertyType": "SINGLE_FAMILY",
            "country": "USA",
            "currency": "USD",
            "listingDateTime": 1619226589000,
            "price": 380000
        },
        {
            "bathrooms": 2,
            "bedrooms": 4,
            "listingStatus": "FOR_SALE",
            "zpid": "49987539",
            "longitude": -78.883823,
            "latitude": 36.034723,
            "address": "3309 Prudence St, Durham, NC 27704",
            "livingArea": 1554,
            "propertyType": "SINGLE_FAMILY",
            "country": "USA",
            "currency": "USD",
            "listingDateTime": 1616786092000,
            "price": 208000
        },
        {
            "bathrooms": 3,
            "bedrooms": 4,
            "listingStatus": "FOR_SALE",
            "zpid": "98187518",
            "longitude": -78.9429,
            "latitude": 35.886194,
            "address": "9 Thompsonville Ct, Durham, NC 27713",
            "livingArea": 3200,
            "propertyType": "SINGLE_FAMILY",
            "country": "USA",
            "currency": "USD",
            "listingDateTime": 1619556895000,
            "price": 689500
        },
        {
            "bathrooms": 3,
            "bedrooms": 4,
            "listingStatus": "FOR_SALE",
            "zpid": "80197951",
            "longitude": -78.869325,
            "latitude": 36.106913,
            "address": "109 Wright Hill Dr, Durham, NC 27712",
            "livingArea": 2480,
            "propertyType": "SINGLE_FAMILY",
            "country": "USA",
            "currency": "USD",
            "listingDateTime": 1619231400000,
            "price": 455000
        },
        {
            "bathrooms": 1,
            "bedrooms": 2,
            "listingStatus": "FOR_SALE",
            "zpid": "49980674",
            "longitude": -78.887326,
            "latitude": 36.025344,
            "address": "416 Hugo St, Durham, NC 27704",
            "livingArea": 754,
            "propertyType": "SINGLE_FAMILY",
            "country": "USA",
            "currency": "USD",
            "listingDateTime": 1619512190000,
            "price": 125000
        },
        {
            "bathrooms": 3,
            "bedrooms": 3,
            "listingStatus": "FOR_SALE",
            "zpid": "2071405656",
            "longitude": -78.974813,
            "latitude": 36.022068,
            "address": "1106 Morristown Cir #643, Durham, NC 27705",
            "livingArea": 2056,
            "propertyType": "TOWNHOUSE",
            "country": "USA",
            "currency": "USD",
            "listingDateTime": 1619515796000,
            "price": 396220
        },
        {
            "bathrooms": 3,
            "bedrooms": 4,
            "listingStatus": "FOR_SALE",
            "zpid": "49998101",
            "longitude": -78.940963,
            "latitude": 35.917001,
            "address": "4714 Rollingwood Dr, Durham, NC 27713",
            "livingArea": 1998,
            "propertyType": "SINGLE_FAMILY",
            "country": "USA",
            "currency": "USD",
            "listingDateTime": 1619573088000,
            "price": 335000
        },
        {
            "bathrooms": 2,
            "bedrooms": 4,
            "listingStatus": "FOR_SALE",
            "zpid": "49974340",
            "longitude": -78.880876,
            "latitude": 35.996,
            "address": "1110 Fern St, Durham, NC 27701",
            "livingArea": 2047,
            "propertyType": "SINGLE_FAMILY",
            "country": "USA",
            "currency": "USD",
            "listingDateTime": 1619208290000,
            "price": 339500
        },
        {
            "bathrooms": 1,
            "bedrooms": 2,
            "listingStatus": "FOR_SALE",
            "zpid": "50013113",
            "longitude": -78.820546,
            "latitude": 36.019181,
            "address": "3534 Cheek Rd, Durham, NC 27704",
            "livingArea": 1381,
            "propertyType": "SINGLE_FAMILY",
            "country": "USA",
            "currency": "USD",
            "listingDateTime": 1611630465000,
            "price": 475000
        }
    ],
    "resultsPerPage": 40,
    "totalResultCount": 463,
    "totalPages": 12
}